{
  "ActorName": "BP_VDL_Citea_LLE_120_2D_C_2147124848",
  "IsPlayerControlled": "true",
  "VehicleModel": "Citea LLE",
  "InputIdentifier": "citea",
  "DaytimeLight": "false",
  "ParkingLight": "false",
  "Headlight": "false",
  "TravellerLight": "false",
  "FogLight": "false",
  "RearFogLight": "false",
  "MainLight": "false",
  "DashboardLight": "false",
  "Speed": 0.0,
  "RPM": 540.854187,
  "IdleRPM": 600.0,
  "MaxRPM": 2400.0,
  "Mass": 9500.0,
  "Steering": 0.0,
  "Throttle": 0.0,
  "Brake": 0.8,
  "FixingBrake": "true",
  "Load": 0.328474,
  "EngineStarted": "true",
  "GearboxType": "TorqueConverter",
  "LowFuelWarning": "false",
  "Location": {
    "X": 165030.141883,
    "Y": 76676.072862,
    "Z": 4689.274543
  },
  "Rotation": {
    "Roll": -1.606255,
    "Pitch": -0.278335,
    "Yaw": -111.756332
  },
  "IndicatorState": 0,
  "IndicatorValue": 0,
  "WarningLights": "false",
  "IsOffroad": "false",
  "Gearbox": {
    "CurrentGear": 0,
    "TargetGear": 0,
    "GearCount": 4
  },
  "Wheels": [
    {
      "CurrentSuspension": 32.861443,
      "PreviousSuspension": 32.861427,
      "Location": {
        "X": 360.536987,
        "Y": -106.981232,
        "Z": 46.494587
      },
      "Rotation": {
        "Roll": 0.0,
        "Pitch": -0.014063,
        "Yaw": 0.0
      },
      "SuspensionForce": 2016068.518824,
      "OnGround": "true",
      "HasContraction": "true"
    },
    {
      "CurrentSuspension": 32.417747,
      "PreviousSuspension": 32.417732,
      "Location": {
        "X": 360.536987,
        "Y": 106.98114,
        "Z": 46.050891
      },
      "Rotation": {
        "Roll": 0.0,
        "Pitch": 0.008712,
        "Yaw": 0.0
      },
      "SuspensionForce": 1900706.354273,
      "OnGround": "true",
      "HasContraction": "true"
    },
    {
      "CurrentSuspension": 31.174082,
      "PreviousSuspension": 31.174095,
      "Location": {
        "X": -258.512421,
        "Y": -106.981201,
        "Z": 44.807253
      },
      "Rotation": {
        "Roll": 0.0,
        "Pitch": -0.006055,
        "Yaw": 0.0
      },
      "SuspensionForce": 2732108.542964,
      "OnGround": "true",
      "HasContraction": "true"
    },
    {
      "CurrentSuspension": 30.662571,
      "PreviousSuspension": 30.662586,
      "Location": {
        "X": -258.512421,
        "Y": 106.981201,
        "Z": 44.295742
      },
      "Rotation": {
        "Roll": 0.0,
        "Pitch": 0.005135,
        "Yaw": 0.0
      },
      "SuspensionForce": 2585816.182464,
      "OnGround": "true",
      "HasContraction": "true"
    }
  ],
  "IsRadioPlaying": "false",
  "ActiveRadioChannel": "",
  "RadioVolume": 0.0,
  "PassengerDoorsOpen": "true",
  "LuggageDoorsOpen": "false",
  "NumSeats": 34,
  "NumOccupiedSeats": 0,
  "IgnitionEnabled": "true",
  "EngineTemperature": 0.01814,
  "WiperLevel": 0,
  "DestinationDisplayActive": "true",
  "CruiseControlActive": "false",
  "AllowedSpeed": 0.0,
  "IsAtStop": "false",
  "DirtIntensity": 0.0,
  "CurrentFuel": 399.920746,
  "MaxFuel": 400.0,
  "DisplayFuel": 0.999802,
  "Buttons": [
    {
      "Name": "Horn",
      "Tooltip": "Hupe",
      "State": "false",
      "Actions": [
        "Horn"
      ]
    },
    {
      "Name": "Driver Window 1",
      "Tooltip": "",
      "State": "None",
      "Value": "1.0",
      "Actions": [
        "DriverWindowOpen",
        "DriverWindowClose"
      ]
    },
    {
      "Name": "Driver Window 2",
      "Tooltip": "",
      "State": "None",
      "Value": "0.0",
      "Actions": [
        "None"
      ]
    },
    {
      "Name": "WindowShade 1",
      "Tooltip": "Sonnenblende hochfahren",
      "State": "Primary",
      "Actions": [
        "WindowShadeUp",
        "WindowShadeDown",
        "None"
      ]
    },
    {
      "Name": "Wiper",
      "Tooltip": "",
      "State": "Off",
      "Actions": [
        "WiperDown",
        "WiperUp"
      ]
    },
    {
      "Name": "ParkingBrake",
      "Tooltip": "Feststellbremse",
      "State": "Primary",
      "Actions": [
        "FixingBrake"
      ]
    },
    {
      "Name": "Gear Selector",
      "Tooltip": "",
      "State": "Neutral",
      "Actions": [
        "SetGearN",
        "SetGearR",
        "SetGearD"
      ]
    },
    {
      "Name": "Fake Ignition",
      "Tooltip": "",
      "State": "Start",
      "Actions": [
        "MotorStartStop"
      ]
    },
    {
      "Name": "BusStopBrake",
      "Tooltip": "Haltestellenbremse aktivieren",
      "State": "Primary",
      "Actions": [
        "StopBrakeOnOff"
      ]
    },
    {
      "Name": "Light Switch",
      "State": "Off",
      "Value": "1.0",
      "Actions": [
        "Lightswitch",
        "LightSwitchDown",
        "LightSwitchUp"
      ]
    },
    {
      "Name": "HighBeam",
      "Tooltip": "",
      "State": "Primary",
      "Actions": [
        "ToggleTravellerLights"
      ]
    },
    {
      "Name": "Indicator",
      "Tooltip": "",
      "State": "Primary",
      "Actions": [
        "SetIndicatorOff",
        "SetIndicatorDown",
        "SetIndicatorUp",
        "None"
      ]
    },
    {
      "Name": "WarningLights",
      "Tooltip": "Deaktiviere Warnblinker",
      "State": "Primary",
      "Actions": [
        "ToggleWarningLights",
        "None"
      ]
    },
    {
      "Name": "DriverLight",
      "Tooltip": "",
      "State": "Primary",
      "Actions": [
        "ToggleDriversLight",
        "None"
      ]
    },
    {
      "Name": "AutomaticKneeling",
      "Tooltip": "Deaktiviere automatisches Kneeling",
      "State": "Primary",
      "Actions": [
        "Autokneeling",
        "None"
      ]
    },
    {
      "Name": "Retarder",
      "Tooltip": "Retarder aus",
      "State": "Primary",
      "Actions": [
        "RetarderOn",
        "RetarderOff",
        "None"
      ]
    },
    {
      "Name": "InteriorLightLevel",
      "Tooltip": "Innenbeleuchtung Stufe 2",
      "State": "Primary",
      "Actions": [
        "InteriorLightOff",
        "InteriorLightDimmed",
        "InteriorLightBright",
        "None",
        "TogglePassengersLight"
      ]
    },
    {
      "Name": "DoorClearance",
      "Tooltip": "Türfreigabe deaktivieren",
      "State": "Primary",
      "Actions": [
        "ToggleDoorClearance",
        "None"
      ]
    },
    {
      "Name": "Door 1",
      "Tooltip": "Vordere Tür öffnen/schließen",
      "State": "false",
      "Actions": [
        "DoorFrontOpenClose"
      ]
    },
    {
      "Name": "Door 2",
      "Tooltip": "Mittlere Tür öffnen/schließen",
      "State": "false",
      "Actions": [
        "MiddleDoorOpenClose"
      ]
    },
    {
      "Name": "Door 3",
      "Tooltip": "Hintere Tür öffnen/schließen",
      "State": "false",
      "Actions": [
        "RearDoorOpenClose"
      ]
    },
    {
      "Name": "Door 4",
      "Tooltip": "Hintere Tür öffnen/schließen",
      "State": "false",
      "Actions": [
        "FourthDoorOpenClose"
      ]
    },
    {
      "Name": "Cashier Light",
      "Tooltip": "",
      "State": "Primary",
      "Actions": [
        "ToggleCabinLight",
        "None"
      ]
    },
    {
      "Name": "Interior Heater",
      "Tooltip": "Innenraum Beheizung umschalten",
      "State": "false",
      "Actions": [
        "Heater"
      ]
    },
    {
      "Name": "Mirror Heater",
      "Tooltip": "Spiegelbeheizung umschalten",
      "State": "false",
      "Actions": [
        "MirrorHeater"
      ]
    },
    {
      "Name": "Air Condition",
      "Tooltip": "Klimaanlage umschalten",
      "State": "false",
      "Actions": [
        "ToggleAirCondition"
      ]
    },
    {
      "Name": "Air Condition Temperature",
      "Tooltip": "",
      "State": "Primary",
      "Actions": [
        "AirconditionPlus",
        "AirconditionMinus",
        "None"
      ]
    },
    {
      "Name": "Reading Light",
      "Tooltip": "Leselampen umschalten",
      "State": "false",
      "Actions": [
        "ToggleReadingLightClearance"
      ]
    },
    {
      "Name": "Pantograph",
      "Tooltip": "",
      "State": "Primary",
      "Actions": [
        "Deactivate Pantograph",
        "Activate Pantograph",
        "None"
      ]
    },
    {
      "Name": "Enter",
      "Tooltip": "",
      "State": "false",
      "Actions": [
        "None"
      ]
    },
    {
      "Name": "RBL",
      "Tooltip": "",
      "State": "Primary",
      "Actions": [
        "RBL",
        "None"
      ]
    },
    {
      "Name": "Camera 1",
      "Tooltip": "Überwachungskamera umschalten",
      "State": "false",
      "Actions": [
        "Camera"
      ]
    },
    {
      "Name": "CameraNext",
      "Tooltip": "",
      "State": "Primary",
      "Actions": [
        "SwitchPreviousCamera",
        "SwitchNextCamera",
        "None"
      ]
    },
    {
      "Name": "TractionControl",
      "Tooltip": "Antischlupfregelung umschalten",
      "State": "false",
      "Actions": [
        "ToggleASRThreshold"
      ]
    },
    {
      "Name": "InteriorLightDimmer",
      "Tooltip": "Normale Innenbeleuchtung",
      "State": "Primary",
      "Actions": [
        "UpdateInteriorLight",
        "ToggleInteriorLightDim",
        "None"
      ]
    },
    {
      "Name": "Lifting",
      "Tooltip": "",
      "State": "Primary",
      "Actions": [
        "LiftDown",
        "LiftUp",
        "None"
      ]
    },
    {
      "Name": "DisplayNext",
      "Tooltip": "",
      "State": "Primary",
      "Actions": [
        "None",
        "DisplayMenu"
      ]
    },
    {
      "Name": "Front Hatch",
      "Tooltip": "Öffnen/Schliessen vordere Luke nach vorne",
      "State": "Primary",
      "Actions": [
        "OpenCloseFrontHatchFront",
        "OpenCloseFrontHatchRear",
        "None"
      ]
    },
    {
      "Name": "Rear Hatch",
      "Tooltip": "Öffnen/Schliessen hintere Luke nach vorne",
      "State": "Primary",
      "Actions": [
        "OpenCloseRearHatchFront",
        "OpenCloseRearHatchRear",
        "None"
      ]
    },
    {
      "Name": "All Hatches",
      "Tooltip": "Alle Luken schließen",
      "State": "false",
      "Actions": [
        "CloseHatches"
      ]
    },
    {
      "Name": "AutomaticDoorClosing",
      "Tooltip": "",
      "State": "Primary",
      "Actions": [
        "ToggleAutomaticRearDoorClosing",
        "None"
      ]
    },
    {
      "Name": "EmergencyValve 1",
      "Tooltip": "Notfall zurücksetztung",
      "State": "false",
      "Actions": [
        "None"
      ]
    },
    {
      "Name": "AC 1 FanSpeed",
      "State": "Default",
      "Value": "0.0",
      "Actions": [
        "None"
      ]
    },
    {
      "Name": "AC 1 Mode",
      "State": "Default",
      "Value": "0.0",
      "Actions": [
        "None"
      ]
    },
    {
      "Name": "Manual Sunblind",
      "Tooltip": "",
      "State": "None",
      "Value": "0.0",
      "Actions": [
        "WindowShadeSideUp",
        "WindowShadeSideDown"
      ]
    },
    {
      "Name": "Driver Door",
      "State": "None",
      "Value": "0.0",
      "Actions": [
        "None"
      ]
    },
    {
      "Name": "Cash Drawer",
      "Tooltip": "",
      "State": "None",
      "Value": "1.0",
      "Actions": [
        "None"
      ]
    },
    {
      "Name": "Vent Left",
      "Tooltip": "",
      "State": "Primary",
      "Actions": [
        "None"
      ]
    },
    {
      "Name": "Vent Right",
      "Tooltip": "",
      "State": "Primary",
      "Actions": [
        "None"
      ]
    },
    {
      "Name": "BoardComputer",
      "Tooltip": "Atron auswählen",
      "State": "false",
      "Actions": [
        "Select Boardcomputer"
      ]
    },
    {
      "Name": "15 Cent",
      "Tooltip": "0.15 €",
      "State": "false",
      "Actions": [
        "Coins15"
      ]
    },
    {
      "Name": "20 Cent",
      "Tooltip": "0.20 €",
      "State": "false",
      "Actions": [
        "Coins20"
      ]
    },
    {
      "Name": "30 Cent",
      "Tooltip": "0.30 €",
      "State": "false",
      "Actions": [
        "Coins30"
      ]
    },
    {
      "Name": "50 Cent",
      "Tooltip": "0.50 €",
      "State": "false",
      "Actions": [
        "Coins50"
      ]
    },
    {
      "Name": "60 Cent",
      "Tooltip": "0.60 €",
      "State": "false",
      "Actions": [
        "Coins60"
      ]
    },
    {
      "Name": "1 Euro",
      "Tooltip": "1 €",
      "State": "false",
      "Actions": [
        "Coins100"
      ]
    },
    {
      "Name": "2 Euro",
      "Tooltip": "2 €",
      "State": "false",
      "Actions": [
        "Coins200"
      ]
    },
    {
      "Name": "4 Euro",
      "Tooltip": "4 €",
      "State": "false",
      "Actions": [
        "Coins400"
      ]
    },
    {
      "Name": "6 Euro",
      "Tooltip": "6 €",
      "State": "false",
      "Actions": [
        "Coins600"
      ]
    },
    {
      "Name": "8 Euro",
      "Tooltip": "8 €",
      "State": "false",
      "Actions": [
        "Coins800"
      ]
    },
    {
      "Name": "5 Cent",
      "Tooltip": "",
      "State": "false",
      "Actions": [
        "Coins5"
      ]
    },
    {
      "Name": "10 Cent",
      "Tooltip": "",
      "State": "false",
      "Actions": [
        "Coins10"
      ]
    },
    {
      "Name": "Cash Money",
      "Tooltip": "",
      "State": "false",
      "Actions": [
        "Take Cash Money"
      ]
    }
  ],
  "Doors": [
    {
      "Name": "Door Front",
      "Open": "true",
      "Progress": "1.0",
      "StopRequest": "false"
    },
    {
      "Name": "Door Middle",
      "Open": "false",
      "Progress": "0.0",
      "StopRequest": "false"
    }
  ],
  "UMG": {
    "Navigation": "/vehicles/BP_VDL_Citea_LLE_120_2D_C_2147124848/navigation",
    "Atron": "/vehicles/BP_VDL_Citea_LLE_120_2D_C_2147124848/boardcomputer",
    "Driver Display": "/vehicles/BP_VDL_Citea_LLE_120_2D_C_2147124848/driverdisplay"
  },
  "AllLamps": {
    "Default Emissive Materials": 0.0,
    "IndicatorLeft": 0.0,
    "IndicatorRight": 0.0,
    "LightDaytime": 1.0,
    "LightMain": 0.0,
    "LightParking": 0.0,
    "LightHeadlight": 0.0,
    "LightTraveling": 0.0,
    "LightBrake": 1.0,
    "LightReversal": 0.0,
    "LightFog": 0.0,
    "LightRearFog": 0.0,
    "Interior Lights Dimmed": 0.0,
    "Interior Lights Bright": 0.0,
    "Init LEDs": 0.0,
    "Init LEDs Electric": 0.0,
    "DriverLight": 0.0,
    "Small Lights": 1.0,
    "ButtonLight GearSwitch State 1": 0.0,
    "ButtonLight GearSwitch State 2": 3.0,
    "ButtonLight GearSwitch State 3": 0.0,
    "ButtonLight WarningLights": 0.0,
    "LED Kneeling": 0.0,
    "Icon Warning": 0.0,
    "LED BusStopBrake": 1.0,
    "LED FixingBrake": 1.0,
    "LED Retarder": 0.0,
    "LED TractionControl": 0.0,
    "Icon Info": 0.0,
    "ButtonLight Door 1": 1.0,
    "ButtonLight Door 2": 0.0,
    "ButtonLight Door 3": 0.0,
    "ButtonLight Door 4": 0.0,
    "Front Door Light": 1.0,
    "2nd Door Light": 0.0,
    "3rd Door Light": 0.0,
    "4th Door Light": 0.0,
    "2nd Door Light Blinking": 0.0,
    "3rd Door Light Blinking": 0.0,
    "4th Door Light Blinking": 0.0,
    "ReadingLight": 0.0,
    "DoorClearanceButton": 0.0,
    "Cashier Light": 1.0,
    "LED Pantograph": 0.0
  },
  "BusLogic": {
    "Sales": {}
  }
}